{
    "parks": [
		{
			"name":		    "NCP Portman Square",
			"address":		"Unknown",
			"coordinates":	"51.516617,-0.157328"	
		}, {
			"name":		    "NCP Mortimer Street",
			"address":		"Unknown",
			"coordinates":	"51.517960,-0.137539"
		}, {
			"name":		    "Bloomsbury Square Car Parks",
			"address":		"Bloomsbury Square, London WC1A 2RJ, UK",
			"coordinates":	"51.518986,-0.123146"	
		}, {
			"name":		    "National Car Parks Ltd",
			"address":		"Unknown",
			"coordinates":	"51.521072,-0.108972"	
		}, {
			"name":		    "Saffron Hill Car Park",
			"address":		"Unknown",
			"coordinates":	"51.521080,-0.107052"
		}, {
			"name":		    "Aldersgate Street Car Park",
			"address":		"Unknown",
			"coordinates":	"51.518463,-0.097053"	
		}, {
			"name":		    "Finsbury Square Car Park",
			"address":		"Unknown",
			"coordinates":	"51.521496,-0.086399"	
		}, {
			"name":		    "39 America Street",
			"address":		"London SE1 0NJ, UK",
			"coordinates":	"51.504330,-0.096366"	
		}, {
			"name":		    "Westminster car park",
			"address":		"Unknown",
			"coordinates":	"51.495750,-0.131500"
		}, {
			"name":		    "7-9 Denman St",
			"address":		"Unknown",
			"coordinates":	"51.510761,-0.134864"	
		}, {
			"name":		    "Cornwall Road Car Park",
			"address":		"Unknown",
			"coordinates":	"51.506069,-0.111666"	
		}, {
			"name":		    "Car Park - Waterloo",
			"address":		"Waterloo C Car Park, Lambeth, London SE1, UK",
			"coordinates":	"51.504627,-0.117041"	
		}, {
			"name":		    "Spring Gardens Car Park - Trafalgar",
			"address":		"Cockspur Court, St. James's, London, UK",
			"coordinates":	"51.507240,-0.129838"
		}, {
			"name":		    "Car Park - Regent Street",
			"address":		"London NW1 8BS, UK",
			"coordinates":	"51.510574,-0.140827"
		}, {
			"name":		    "Car Park - Mayfair",
			"address":		"Achilles Way, Mayfair, London W1K 1AB, UK",
			"coordinates":	"51.507549,-0.150327"	
		}, {
			"name":		    "Westiminster Car Park",
			"address":		"Unknown",
			"coordinates":	"51.497547,-0.126450"	
		}, {
			"name":		    "70 Ewer Street	",
			"address":		"London SE1 0NL, UK	",
			"coordinates":	"51.504430,-0.098873"
		}, {
			"name":		    "National Car Parks",
			"address":		"Unknown",
			"coordinates":	"51.512135,-0.134995"
		}, {
			"name":		    "NCP Car Park - High Holborn",
			"address":		"Unknown",
			"coordinates":	"51.516617,-0.124701"
		}, {
			"name":		    "Car park - Old Street (narrow)",
			"address":		"244-278 Crondall Street, London N1 6JF, UK",
			"coordinates":	"51.530865,-0.080689"	
		}, {
			"name":		    "Car Park - Wigmore Street",
			"address":		"Wigmore, at Car Park, Gillingham, Medway ME7, UK",
			"coordinates":	"51.33669, 0.5818199999999933"	
		}, {
			"name":		    "Car Park - Knightsbridge",
			"address":		"Unknown",
			"coordinates":	"51.504066,-0.156126"	
		},{
			"name":		    "Car Park Hilton London Islington",
			"address":		"Unknown",
			"coordinates":	"51.535946,-0.104810"	
		}, {
			"name":		    "Westminster City Car Parks",
			"address":		"Unknown",
			"coordinates":	"51.510952,-0.186935"
		},{
			"name":		    "Q Park - Butlers Wharf - Design Museum",
			"address":		"NCP Cardogan Place",
			"coordinates":	"51.497883,-0.157896"	
		},{
			"name":		    "16 Semley Place",
			"address":		"London SW1W 9QJ, UK",
			"coordinates":	"51.492252,-0.150408"
		},{
			"name":		    "Parking Partnership Limited",
			"address":		"18 St George Wharf, London SW8 2LP, UK",
			"coordinates":	"51.485131,-0.125701"	
		},{
			"name":		    "62 Wandsworth Road",
			"address":		"London SW8 2LF, UK",
			"coordinates":	"51.481544,-0.128236"	
		},{
			"name":		    "181-183 Kennington Lane",
			"address":		"London SE11 4EZ, UK",
			"coordinates":	"51.488753,-0.110750"
		},{
			"name":		    "110 Elephant Road",
			"address":		"London SE17 1LB, UK",
			"coordinates":	"51.493828,-0.098647"
		}, {
			"name":		    "5 Garden Terrace, Lillington and Longmoore Gardens",
			"address":		"London SW1V, UK",
			"coordinates":	"51.490351,-0.134660"
		},{
			"name":		    "Ely & Sidney Ltd, 15 Hanbury Street",
			"address":		"London E1 6QR, UK",
			"coordinates":	"51.520227,-0.073101"
		},{
			"name":		    "36 New Inn Yard",
			"address":		"London EC2A, UK",
			"coordinates":	"51.524498,-0.078920"	
		},{
			"name":		    "93 Leonard Street",
			"address":		"London EC2A 4RD, UK",
			"coordinates":	"51.524852,-0.082031"
		}, {
			"name":		    "2-10 Osborn Street",
			"address":		"London E1 6TD, UK",
			"coordinates":	"51.516063,-0.069693"	
		}, {
			"name":		    "69 Knightsbridge, Belgravia",
			"address":		"London SW1X 7RB, UK",
			"coordinates":	"51.501975,-0.157801"
		}, {
			"name":		    "Unknown",
			"address":		"56-61 Knightsbridge, London SW1X, UK",
			"coordinates":	"51.502274,-0.157587"
		}, {
			"name":		    "Woolworth House, 242-246 Marylebone Road",
			"address":		"London NW1 6JQ, UK",
			"coordinates":	"51.521368,-0.163837"
		}, {
			"name":		    "18-22 Park Road",
			"address":		"London NW1 4SH, UK",
			"coordinates":	"51.525752,-0.161385"
		}, {
			"name":		    "1 West Garden Place",
			"address":		"London W2 2AQ, UK",
			"coordinates":	"51.515747,-0.165000"	
		}, {
			"name":		    "54 Queensway, London W2 3RY, UK",
			"address":		"54 Queensway, London W2 3RY, UK",
			"coordinates":	"51.512039,-0.187285"
		}, {
			"name":		    "137 Pancras Road, London NW1 1UN, UK",
			"address":		"137 Pancras Road, London NW1 1UN, UK",
			"coordinates":	"51.533473,-0.128637"
		}, {
			"name":		    "65 Park Road, London NW1 6XU, UK",
			"address":		"65 Park Road, London NW1 6XU, UK",
			"coordinates":	"51.526090,-0.162248"	
		}, {
			"name":		    "170 Marylebone Road, Marylebone",
			"address":		"London NW1 5AR, UK",
			"coordinates":	"51.522015,-0.159730"
		}, {
			"name":		    "Grant Thornton House",
			"address":		"London NW1, UK",
			"coordinates":	"51.526975, -0.13393"
		}, {
			"name":		    "2-10 Osborn Street",
			"address":		"London E1 6TD, UK",
			"coordinates":	"51.516063,-0.069693"
		}, {
			"name":		    "19-27 Young Street",
			"address":		"London W8 5EH, UK",
			"coordinates":	"51.501946,-0.190132"
		}, {
			"name":		    "Euro Car Park (Royal Garden Hotel)",
			"address":		"Kensington, London W8, UK",
			"coordinates":	"51.502593,-0.188319"
		}, {
			"name":		    "135 Queensway, London",
			"address":		"W2 5HP, UK",
			"coordinates":	"51.516595,-0.189453"	
		}, {
			"name":		    "150 Edgware Road, London W2, UK",
			"address":		"150 Edgware Road, London W2, UK",
			"coordinates":	"51.516910,-0.165578"
		}, {
			"name":		    "2 Lawn House Close",
			"address":		"Isle of Dogs, London E14 9YQ, UK",
			"coordinates":	"51.500096,-0.010483"
		}, {
			"name":		    "Semley House, Semley Place",
			"address":		"London SW1W 9QJ, UK",
			"coordinates":	"51.492177,-0.150014"
		}, {
			"name":		    "? 63-65 Buckhold Road, London SW18, UK",
			"address":		"Unknown",
			"coordinates":	"51.454908,-0.197175"
		}, {
			"name":		    "Charecroft Way",
			"address":		"London W12, UK",
			"coordinates":	"51.50288,-0.21926750000000084"
		}, {
			"name":		    "Selsdon Way London",
			"address":		"E14 9GL United Kingdom",
			"coordinates":	"51.4946009,-0.015076599999929385)"	
		}, {
			"name":		    "The Quadrant Town Centre",
			"address":		"TW9 2NA United Kingdom",
			"coordinates":	"51.4622537,-0.3027280999999675"
		}, {
			"name":		    "St James Rd Kingston upon Thames",
			"address":		"KT1 2BA United Kingdom",
			"coordinates":	"51.4081874,-0.3049220000000332)"
		}, {
			"name":		    "NCP Highgate London Underground Station Car Park",
			"address":		"London N6 5UA United Kingdom",
			"coordinates":	"51.5776464,-0.14693480000005366"
		}, {
			"name":		    "London NW4 4PN United Kingdom",
			"address":		"London NW4 4PN United Kingdom",
			"coordinates":	"51.5807037, -0.2374082000000044"	
		}, {
			"name":		    "London Underground Station Car Park",
			"address":		"Wembley HA9 9AA",
			"coordinates":	"51.5633488,-0.279227100000071"
		}, {
			"name":		    "NCP South Underground Car Park",
			"address":		"Harrow HA2 8HN United Kingdom",
			"coordinates":	"51.5646648,-0.35276010000006863"
		}, {
			"name":		    "NCP Sudbury Town Underground Station",
			"address":		"Wembley HA0 2LA United Kingdom",
			"coordinates":	"51.5517111,-0.3150481000000127"
		}, {
			"name":		    "NCP Ruislip Gardens London Underground Station",
			"address":		"Ruislip HA4 6DP United Kingdom",
			"coordinates":	"51.566868,-0.413076300000057"
		}, {
			"name":		    "NCP Ickenham London Underground Station",
			"address":		"Uxbridge UB10 8PD United Kingdom",
			"coordinates":	"51.5609012,-0.43991779999998926"
		}, {
			"name":		    "NCP Hillingdon London Underground Station Car Park",
			"address":		"Uxbridge UB10 9NR United Kingdom",
			"coordinates":	"51.55377679999999,-0.4498978999999963"
		}, {
			"name":		    "Heathrow Airport Parking - NCP Flightpath",
			"address":		"Bath Rd Sipson West Drayton, Middlesex UB7 0DU, United Kingdom",
			"coordinates":	"51.48101680000001, -0.4212184000000434"	
		}, {
			"name":		    "NCP Hounslow West London Underground Station",
			"address":		"Hounslow TW3 3DH United Kingdom",
			"coordinates":	"51.4731051, -0.3857075999999324"	
		}, {
			"name":		    "NCP Richmond MSCP",
			"address":		"Richmond TW9 2NA United Kingdom",
			"coordinates":	"51.464125,-0.3006550000000061"
		}, {
			"name":		    "NCP Croydon Fairfield",
			"address":		"Croydon CR0 1JN United Kingdom",
			"coordinates":	"51.37154229999999, -0.09511159999999563"	
		}, {
			"name":		    "NCP Alders MSCP",
			"address":		"Croydon CR0 2AA United Kingdom",
			"coordinates":	"51.3750807, -0.09814019999998891"
		}, {
			"name":		    "NCP Dingwall Road",
			"address":		"Croydon CR0 0XH United Kingdom",
			"coordinates":	"51.376165,-0.09823400000004767"
		}, {
			"name":		    "NCP Whitgift Centre MSCP",
			"address":		"Croydon CR0 1LP United Kingdom",
			"coordinates":	"51.3757043, -0.0999967000000197"
		}, {
			"name":		    "NCP Elmfield Road",
			"address":		"Bromley BR1 1TR United Kingdom",
			"coordinates":	"51.4024815, 0.017468799999960538"
		}, {
			"name":		    "NCP Bexleyheath Trading World",
			"address":		"Bexleyheath DA6 7HG United Kingdom",
			"coordinates":	"51.4552269, 0.1420144999999593"	
		}, {
			"name":		    "NCP National Express - Gidea Park Station Car Park",
			"address":		"Romford RM2 6BX United Kingdom	",
			"coordinates":	"51.5817129, 0.20742749999999432"
		}, {
			"name":		    "NCP South Woodford London Underground Station Car Park",
			"address":		"South Woodford E18 1JJ United Kingdom",
			"coordinates":	"51.593384, 0.020673999999985426"
		}, {
			"name":		    "NCP Newbury Park London Underground Station Car Park 2",
			"address":		"Ilford IG2 7RN United Kingdom",
			"coordinates":	"51.575648, 0.09027479999997468"
		}, {
			"name":		    "NCP Leytonstone London Underground Station Car Park",
			"address":		"Leytonstone E11 1HE United Kingdom",
			"coordinates":	"51.5684629, 0.0099831"	
		}, {
			"name":		    "National Car Parks Great Eastern St London",
			"address":		"Islington EC2A 3ER, United Kingdom",
			"coordinates":	"51.5241774, -0.08367680000003475"
		}, {
			"name":		    "NCP Blackhorse Road London Underground Station Car Park",
			"address":		"Walthamstow E17 6ND, United Kingdom",
			"coordinates":	"51.59054099999999, -0.02140699999995377"
		}, {
			"name":		    "NCP Hainault London Underground Station Car Park",
			"address":		"Ilford IG6 3BD United Kingdom",
			"coordinates":	"51.6040044, 0.09417640000003757"
		}, {
			"name":		    "NCP First Capital Connect Palmers Green Car Park",
			"address":		"Palmers Green N13 4PN United Kingdom",
			"coordinates":	"51.623503,-0.10371499999996558"
		}, {
			"name":		    "NCP Arnos Grove London Underground Station Car Park 2",
			"address":		"New Southgate N11 1AN United Kingdom",
			"coordinates":	"51.61100099999999, -0.13546900000005735"
		}, {
			"name":		    "NCP First Capital Connect Cuffley Station Car Park",
			"address":		"Cuffley EN5 4HY United Kingdom",
			"coordinates":	"51.6536045, -0.20480139999995117"	
		}, {
			"name":		    "NCP Cockfosters London Underground Station Car Park",
			"address":		"Barnet EN4 0DZ United Kingdom",
			"coordinates":	"51.6520243,-0.14991669999994883"
		}, {
			"name":		    "NCP Oakwood London Underground Station Car Park",
			"address":		"Enfield N14 4UT United Kingdom",
			"coordinates":	"51.6476378, -0.13185350000003382"
		}, {
			"name":		    "NCP First Capital Connect Enfield Chase Car Park",
			"address":		"Enfield EN2 7AA United Kingdom",
			"coordinates":	"51.6532486, -0.09101450000002842"
		}, {
			"name":		    "NCP First Capital Connect Gordon Hill Car Park",
			"address":		"Enfield United Kingdom",
			"coordinates":	"51.65446499999999, -0.08181400000000849"	
		}, {
			"name":		    "NCP First Capital Connect Elstree & Borehamwood Car park (Permit Only)",
			"address":		"Elstree WD6 3LS United Kingdom",
			"coordinates":	"51.6530494, -0.28067490000000817"
		}, {
			"name":		    "NCP C2C Rail Rainham Station Car Park",
			"address":		"Rainham RM13 9YH United Kingdom",
			"coordinates":	"51.5086483, 0.17988450000007106"	
		}, {
			"name":		    "NCP Buckhurst Hill London Underground Station Car Park",
			"address":		"Buckhurst Hill IG9 5ET United Kingdom",
			"coordinates":	"51.6254779, 0.04123570000001564"
		}, {
			"name":		    "NCP National Express - Brentwood Station Car Park",
			"address":		"Brentwood CM14 4EW United Kingdom",
			"coordinates":	"51.6136841, 0.3000666000000365"
		}, {
			"name":		    "NCP Epping London Underground Station Car Park",
			"address":		"Epping CM16 4HW United Kingdom",
			"coordinates":	"51.6936864, 0.11382560000004105"
		}, {
			"name":		    "NCP First Capital Connect Radlett Car Park",
			"address":		"Radlett WD7 7AP United Kingdom",
			"coordinates":	"51.6846492, -0.31740830000001097"
		}, {
			"name":		    "NCP Croxley London Underground Station Car Park",
			"address":		"Rickmansworth WD3 3DY United Kingdom",
			"coordinates":	"51.638763, -0.474130999999943"
		}, {
			"name" : "National Car Parks Ltd",
			"address": "102 High St Epsom KT19 8EU United Kingdom",
			"coordinates":	"51.33325749999999, -0.26935149999997066"
		}, {
			"name" : "National Car Parks Ltd",
			"address": "50-58 Victoria Rd Surbiton KT6 4NG United Kingdom",
			"coordinates":	"51.3913668, -0.30809529999999086"
		}, {
			"name" : "Fairfield Car Park",
			"address": "St James Rd Kingston upon Thames KT1 2BA United Kingdom",
			"coordinates": "51.4081874, -0.3049220000000332"
		}, {
			"name" : "Eagle Star N.C.P. Car Park",
			"address": "Sutton, Greater London United Kingdom",
			"coordinates": "51.3614279, -0.19396099999994476"
		}, {
			"name" : "Stratford / Bow Interchange",
			"address": "Bow Interchange (Stop T), London E3, UK",
			"coordinates": "51.528648, -0.013406000000031781"
		}
    ]
}